{
  "exportDate": "2025-12-22T12:48:59.320Z",
  "premises": [
    {
      "id": "13770302",
      "ic": 28826060,
      "name": "Nefrologie - Sdružená ambulantní péče Vysočina s.r.o.",
      "address": {
        "gps": {
          "latitude": 49.7169028,
          "longitude": 15.6711586
        },
        "city": "Chotěboř",
        "street": "Legií",
        "houseNumber": "1851",
        "zip": "58301"
      },
      "openingHours": "Tu 07:30-13:30; Dec 27 off; Dec 28 off; Dec 29 off; Dec 30 off; Dec 31 off"
    },
    {
      "id": "13770314",
      "ic": 28826060,
      "name": "Tělovýchovné lékařství - Sdružená ambulantní péče Vysočina s.r.o.",
      "address": {
        "gps": {
          "latitude": 49.716903,
          "longitude": 15.671159
        },
        "city": "Chotěboř",
        "street": "Legií",
        "houseNumber": "1851",
        "zip": "58301"
      },
      "openingHours": "Mo 12:00-16:00; Th 12:00-16:00"
    },
    {
      "id": "13770044",
      "ic": 28826060,
      "name": "Všeobecný praktický lékař - Sdružená ambulantní péče Vysočina s.r.o.",
      "address": {
        "gps": {
          "latitude": 49.774089,
          "longitude": 15.67234
        },
        "city": "Maleč",
        "houseNumber": "100",
        "zip": "58276"
      },
      "openingHours": "Mo 06:00-14:00; Tu 13:00-19:00; We 06:00-14:00; Th 07:00-13:00; Fr 06:00-14:00"
    },
    {
      "id": "13292742",
      "ic": 28826060,
      "name": "Diabetologie - Sdružená ambulantní péče Vysočina s.r.o.",
      "address": {
        "gps": {
          "latitude": 49.71683,
          "longitude": 15.67156
        },
        "city": "Chotěboř",
        "street": "Jiráskova",
        "houseNumber": "669",
        "zip": "58301"
      },
      "openingHours": "We 07:30-11:30; Fr 06:30-12:00"
    },
    {
      "id": "13292744",
      "ic": 28826060,
      "name": "Všeobecný praktický lékař - Sdružená ambulantní péče Vysočina s.r.o.",
      "address": {
        "gps": {
          "latitude": 49.71683,
          "longitude": 15.67156
        },
        "city": "Chotěboř",
        "street": "Jiráskova",
        "houseNumber": "669",
        "zip": "58301"
      },
      "openingHours": "Mo 10:00-13:00,13:00-18:00; Tu 08:00-10:00,10:00-13:00; We 08:00-10:00,10:00-13:00; Th 07:00-09:00,09:00-18:00; Fr 07:00-12:00"
    },
    {
      "id": "13770047",
      "ic": 28826060,
      "name": "Diabetologie - Sdružená ambulantní péče Vysočina s.r.o.",
      "address": {
        "gps": {
          "latitude": 50.021937,
          "longitude": 15.211384
        },
        "city": "Kolín",
        "street": "Plynárenská",
        "houseNumber": "671",
        "zip": "28002"
      },
      "openingHours": "Tu 07:00-13:00; Th 07:00-13:00; Fr 07:00-15:00"
    },
    {
      "id": "13770323",
      "ic": 28826060,
      "name": "Endokrinologie - Sdružená ambulantní péče Vysočina s.r.o.",
      "address": {
        "gps": {
          "latitude": 50.021937,
          "longitude": 15.211383
        },
        "city": "Kolín",
        "street": "Plynárenská",
        "houseNumber": "671",
        "zip": "28002"
      },
      "openingHours": "Tu 07:00-13:00; Th 07:00-13:00; Fr 07:00-15:00"
    },
    {
      "id": "13770056",
      "ic": 28826060,
      "name": "Nutriční terapie - Sdružená ambulantní péče Vysočina s.r.o.",
      "address": {
        "gps": {
          "latitude": 50.021937,
          "longitude": 15.211384
        },
        "city": "Kolín",
        "street": "Plynárenská",
        "houseNumber": "671",
        "zip": "28002"
      },
      "openingHours": "Mo 07:00-15:00"
    },
    {
      "id": "13292736",
      "ic": 28826060,
      "name": "Diabetologie - Sdružená ambulantní péče Vysočina s.r.o.",
      "address": {
        "gps": {
          "latitude": 49.716903,
          "longitude": 15.671159
        },
        "city": "Chotěboř",
        "street": "Legií",
        "houseNumber": "1851",
        "zip": "58301"
      },
      "openingHours": "Mo 11:00-15:00; Tu 07:00-12:00; We 07:00-14:30; Th 07:00-16:30; Fr 07:00-16:30"
    },
    {
      "id": "13770239",
      "ic": 28826060,
      "name": "Denzitometrie - Sdružená ambulantní péče Vysočina s.r.o.",
      "address": {
        "gps": {
          "latitude": 49.716903,
          "longitude": 15.671159
        },
        "city": "Chotěboř",
        "street": "Legií",
        "houseNumber": "1851",
        "zip": "58301"
      },
      "openingHours": "Mo 07:00-12:00; Tu 07:00-12:00; We 07:00-12:00; Th 07:00-12:00; Fr 07:00-12:00"
    },
    {
      "id": "13770251",
      "ic": 28826060,
      "name": "Endokrinologie - Sdružená ambulantní péče Vysočina s.r.o.",
      "address": {
        "gps": {
          "latitude": 49.716903,
          "longitude": 15.671159
        },
        "city": "Chotěboř",
        "street": "Legií",
        "houseNumber": "1851",
        "zip": "58301"
      },
      "openingHours": "Mo 11:00-15:00; Tu 07:00-12:00; We 08:00-14:30; Th 08:00-16:30; Fr 08:00-12:00"
    },
    {
      "id": "13769981",
      "ic": 28826060,
      "name": "Fyzioterapie - Sdružená ambulantní péče Vysočina s.r.o.",
      "address": {
        "gps": {
          "latitude": 49.716903,
          "longitude": 15.671159
        },
        "city": "Chotěboř",
        "street": "Legií",
        "houseNumber": "1851",
        "zip": "58301"
      },
      "openingHours": "Tu 06:30-17:00; We 06:30-12:00; Th 06:30-17:00"
    },
    {
      "id": "13769993",
      "ic": 28826060,
      "name": "Kardiologie - Sdružená ambulantní péče Vysočina s.r.o.",
      "address": {
        "gps": {
          "latitude": 49.716903,
          "longitude": 15.671159
        },
        "city": "Chotěboř",
        "street": "Legií",
        "houseNumber": "1851",
        "zip": "58301"
      },
      "openingHours": "Tu 13:00-19:00"
    },
    {
      "id": "13770011",
      "ic": 28826060,
      "name": "Neurologie  - Sdružená ambulantní péče Vysočina s.r.o.",
      "address": {
        "gps": {
          "latitude": 49.716903,
          "longitude": 15.671159
        },
        "city": "Chotěboř",
        "street": "Legií",
        "houseNumber": "1851",
        "zip": "58301"
      },
      "openingHours": "Mo 06:30-11:30,12:00-16:00; Tu 06:30-14:00; We 07:00-15:00; Th 08:00-11:30,12:00-13:00; Fr 06:30-12:00,12:30-14:00"
    },
    {
      "id": "13770026",
      "ic": 28826060,
      "name": "Nutriční terapie - Sdružená ambulantní péče Vysočina s.r.o.",
      "address": {
        "gps": {
          "latitude": 49.716903,
          "longitude": 15.671159
        },
        "city": "Chotěboř",
        "street": "Legií",
        "houseNumber": "1851",
        "zip": "58301"
      },
      "openingHours": "Mo 08:00-16:00; Fr 08:00-16:00"
    },
    {
      "id": "12924351",
      "ic": 2443198,
      "name": "Diabetologie - Sdružená ambulantní péče Pardubice s.r.o.",
      "address": {
        "gps": {
          "latitude": 49.766002,
          "longitude": 15.901531
        },
        "city": "Hlinsko",
        "street": "Nádražní",
        "houseNumber": "548",
        "zip": "53901"
      },
      "openingHours": "Tu 07:00-12:00; We 07:00-09:00,09:00-15:00; Th 07:00-15:00; Fr 07:00-12:00,13:00-15:00"
    },
    {
      "id": "13770332",
      "ic": 2443198,
      "name": "Endokrinologie - Sdružená ambulantní péče Pardubice s.r.o.",
      "address": {
        "gps": {
          "latitude": 49.766002,
          "longitude": 15.901531
        },
        "city": "Hlinsko",
        "street": "Nádražní",
        "houseNumber": "548",
        "zip": "53901"
      },
      "openingHours": "Tu 07:00-12:00; We 07:00-09:00,09:00-15:00; Th 07:00-15:00; Fr 07:00-12:00,13:00-15:00"
    },
    {
      "id": "13770335",
      "ic": 2443198,
      "name": "Interní ambulance - Sdružená ambulantní péče Pardubice s.r.o.",
      "address": {
        "gps": {
          "latitude": 49.766002,
          "longitude": 15.901531
        },
        "city": "Hlinsko",
        "street": "Nádražní",
        "houseNumber": "548",
        "zip": "53901"
      },
      "openingHours": "Mo 07:00-13:00; Tu 07:00-12:00; Th 07:00-15:00"
    },
    {
      "id": "13770347",
      "ic": 2443198,
      "name": "Očkovací centrum - Sdružená ambulantní péče Pardubice s.r.o.",
      "address": {
        "gps": {
          "latitude": 49.766002,
          "longitude": 15.901531
        },
        "city": "Hlinsko",
        "street": "Nádražní",
        "houseNumber": "548",
        "zip": "53901"
      },
      "openingHours": "Mo 07:00-15:00; Tu 07:00-15:00; We 07:00-15:00; Th 07:00-15:00; Fr 07:00-15:00"
    },
    {
      "id": "13770350",
      "ic": 2443198,
      "name": "Osteologie - Sdružená ambulantní péče Pardubice s.r.o.",
      "address": {
        "gps": {
          "latitude": 49.766002,
          "longitude": 15.901531
        },
        "city": "Hlinsko",
        "street": "Nádražní",
        "houseNumber": "548",
        "zip": "53901"
      },
      "openingHours": "Mo 07:00-15:30; Tu 07:00-15:30; We 07:00-15:30; Th 07:00-18:00; Fr 07:00-12:00"
    },
    {
      "id": "13770365",
      "ic": 2443198,
      "name": "Všeobecný praktický lékař - Sdružená ambulantní péče Pardubice s.r.o.",
      "address": {
        "gps": {
          "latitude": 49.766002,
          "longitude": 15.901531
        },
        "city": "Hlinsko",
        "street": "Nádražní",
        "houseNumber": "548",
        "zip": "53901"
      },
      "openingHours": "Mo 07:00-13:00; Tu 07:00-12:00; We 07:00-09:00,09:00-15:00; Th 07:00-15:00; Fr 07:00-12:00,13:00-15:00; Dec 23 off"
    }
  ]
}